[
  {
    "name":"MyFirstPlace Daycare",
    "address":"1931 22nd St, Santa Monica, CA 90404",
    "type":"AHP Recycle",
    "latitude":34.0229,
    "longitude":-118.4694,
    "isOpen": false
  },
  {
    "name":"Amalia DayCare",
    "address":"2503 20th St, Santa Monica, CA 90405",
    "type":"AHP Recycle",
    "latitude":34.0147,
    "longitude":-118.4650,
    "isOpen": false
  },
  {
    "name":"Petit à Petit French Bilingual Daycare Santa Monica Day Care Garderie Crèche Francaise",
    "address":"1452 Harvard St, Santa Monica, CA 90404",
    "type":"AHP Recycle",
    "latitude":34.0334,
    "longitude":-118.4715,
    "isOpen": false
  },
  {
    "name":"Sarian Family Child Care",
    "address":"1434 Franklin St B, Santa Monica, CA 90404",
    "type":"AHP Recycle",
    "latitude":34.0369,
    "longitude":-118.4680,
    "isOpen": false
  },
  {
    "name":"Stepping Stone Child Care and Preschool",
    "address":"2527 25th St, Santa Monica, CA 90405",
    "type":"AHP Recycle",
    "latitude":34.0183,
    "longitude":-118.4595,
    "isOpen": false
  },
  {
    "name":"Bright Start Learning Center",
    "address":"1501 17th St, Santa Monica, CA 90404",
    "type":"AHP Recycle",
    "latitude":34.0252,
    "longitude":-118.4809,
    "isOpen": false
  },
  {
    "name":"Empress Family Child Daycare",
    "address":"1736 Franklin St # B, Santa Monica, CA 90404",
    "type":"AHP Recycle",
    "latitude":34.0330,
    "longitude":-118.4632,
    "isOpen": false
  },
  {
    "name":"Early Bird Learning Centers",
    "address":"1424 Yale St, Santa Monica, CA 90404",
    "type":"AHP Recycle",
    "latitude":34.0258,
    "longitude":-118.4939,
    "isOpen": false
  },
  {
    "name":"Ocean Park Child Care Center",
    "address":"Santa Monica, CA 90405",
    "type":"AHP Recycle",
    "latitude":34.0050,
    "longitude":-118.4804,
    "isOpen": false
  },
  {
    "name":"Lighthouse Center for Infants",
    "address":"1424 Yale St, Santa Monica, CA 90404",
    "type":"AHP Recycle",
    "latitude":34.0347,
    "longitude":-118.4714,
    "isOpen": false
  }
]